station_name,latitude,longitude,elevation[m],d_east[m],d_nord[m],d_z[m]
CBAC,40.810901,14.08057,77.0,0.00023607007197502163,2.958013756745808e-05,-9.717941972755207e-05
CFMN,40.832942,14.090403,92.0,-0.0002219392289901461,0.00016357982696872783,0.00022360368047694064
CMIS,40.778154,14.089047,134.0,-8.28387701867397e-05,-0.0001056890307309735,1.1364806578217766e-05
CMSN,40.8382,14.1818,20.0,-0.0001581557709924928,-1.2283274148757905e-05,-2.4382116775692e-05
CQUE,40.885355,14.155414,109.0,0.00011117183415607647,-5.5160565608279455e-06,-7.535327000786827e-07
