station_name,latitude,longitude,elevation[m],d_east[m],d_nord[m],d_z[m]
CFMN,40.832942,14.090403,92.0,-2.5069373924812627e-06,2.0457818977132803e-06,2.923386538915864e-06
CMIS,40.778154,14.089047,134.0,1.7959363118243557e-07,-1.8757450199822715e-06,1.9815335999720037e-07
CMSN,40.8382,14.1818,20.0,-3.3439331879856606e-06,-1.4052866463772517e-06,-3.888746428685511e-07
CPOZ,40.821072,14.11911,52.0,8.144839836677904e-07,-2.393882816387654e-06,-4.171370402066176e-06
CSFT,40.829168,14.139635,151.0,-1.6217046157192384e-05,2.986082538109185e-06,1.7316729739763437e-05
